{
  "routeName": "Историческая пешеходная экскурсия по Амалиенау",
  "introAudioFile": "0. презентация.opus",
  "stops": [
    {
      "id": "stop_0_1",
      "title": "пр. Победы / Луизенваль",
      "description": "Вход в исторический парк Луизенваль, названный в честь королевы Луизы.",
      "lat": 54.720132,
      "lng": 20.4759699,
      "audioFile": "0.1 пр. победы1 Луизенваль.opus"
    },
    {
      "id": "stop_1",
      "title": "Кукольный театр (Кирха Королевы Луизы)",
      "description": "Историческая Кирха памяти королевы Луизы, построенная в 1901 году. Ныне — Калининградский областной театр кукол.",
      "lat": 54.7194265,
      "lng": 20.4756946,
      "audioFile": "1. пр.Победы, 1А Кукольный театр.opus"
    },
    {
      "id": "stop_2",
      "title": "Скульптура «Кот и три птицы»",
      "description": "Знаменитая парковая скульптура и малая архитектурная форма старого Кёнигсберга.",
      "lat": 54.7206733,
      "lng": 20.4746634,
      "audioFile": "2. скульптура кот и три птицы.opus"
    },
    {
      "id": "stop_3",
      "title": "ул. Красная 11 / Хомлин Антошка",
      "description": "Старинное жилое здание, где на винтовой лестнице поселился весёлый малыш-хомлин Антошка.",
      "lat": 54.7219957,
      "lng": 20.4745772,
      "audioFile": "3. ул Красная 11 Хомлин Антошка.opus"
    },
    {
      "id": "stop_4",
      "title": "Перекрёсток Степана Разина 26",
      "description": "Пересечение исторических улиц с выразительной брусчаткой и виллами эпохи модерна.",
      "lat": 54.7235405,
      "lng": 20.4744201,
      "audioFile": "4. степана разина 26 перекрёсток.opus"
    },
    {
      "id": "stop_5",
      "title": "Гостиница Чайка",
      "description": "Аутентичное здание советского периода, бережно сохранившее дух респектабельного Кёнигсберга.",
      "lat": 54.7231842,
      "lng": 20.4725915,
      "audioFile": "5. гостиница Чайка.opus"
    },
    {
      "id": "stop_6",
      "title": "ул. Пугачёва 12-14 / Вилла Хагедорн",
      "description": "Памятник архитектуры начала XX века, образец загородной виллы в стиле югендстиль.",
      "lat": 54.7224488,
      "lng": 20.4732814,
      "audioFile": "6.ул. Пугачёва 12.14 Хагедорн.opus"
    },
    {
      "id": "stop_7",
      "title": "ул. Пугачёва 8-10",
      "description": "Ансамбль жилой застройки района, демонстрирующий концепцию «город-сад».",
      "lat": 54.7220795,
      "lng": 20.4733263,
      "audioFile": "7.Пугачева 8.10.opus"
    },
    {
      "id": "stop_8",
      "title": "пр. Мира 90 / История марципана",
      "description": "Рассказ о знаменитых кёнигсбергских традициях кондитерского искусства и марципане.",
      "lat": 54.7211475,
      "lng": 20.4727323,
      "audioFile": "8.пр Мира 90 история марципана.opus"
    },
    {
      "id": "stop_9",
      "title": "ул. Кутузова 5 / Вилла Маковски",
      "description": "Первая часть архитектурного комплекса виллы Маковски, построенной на респектабельной аллее Кутузова.",
      "lat": 54.7204879,
      "lng": 20.47099,
      "audioFile": "9.ул.Кутузова 5 вилла Маковски.opus"
    },
    {
      "id": "stop_10",
      "title": "ул. Кутузова 7-9 / Вилла Маковски",
      "description": "Роскошная историческая вилла, построенная для крупного предпринимателя Маковски.",
      "lat": 54.7202005,
      "lng": 20.47075,
      "audioFile": "10. ул. Кутузова 7.9. вилла Маковски.opus"
    },
    {
      "id": "stop_11",
      "title": "ул. Кутузова 8 / Сельский дом Рутт",
      "description": "Интересный пример стилизации под традиционный сельский дом Германии начала века.",
      "lat": 54.7203785,
      "lng": 20.4699086,
      "audioFile": "11. улКутузова 8. сельский дом рутт.opus"
    },
    {
      "id": "stop_12",
      "title": "ул. Кутузова 10 / Вилла Яфа",
      "description": "Одна из самых монументальных и богато декорированных вилл на всей улице Кутузова.",
      "lat": 54.7202032,
      "lng": 20.4694958,
      "audioFile": "12. ул. Кутузова 10 вилла Яфа.opus"
    },
    {
      "id": "stop_13",
      "title": "Белорусский сквер",
      "description": "Зелёный островок спокойствия посреди виллового квартала, популярное место отдыха.",
      "lat": 54.7197002,
      "lng": 20.46901,
      "audioFile": "13. белорусский сквер.opus"
    },
    {
      "id": "stop_14",
      "title": "ул. Марины Расковой 23 / Вилла Карла Шмидта",
      "description": "Шедевр знаменитого архитектора Фридриха Хайтманна, построенный в 1903 году.",
      "lat": 54.7198461,
      "lng": 20.4684028,
      "audioFile": "14. ул. Марины Расковой, 23 вилла карла шмидта.opus"
    },
    {
      "id": "stop_15",
      "title": "ул. Огарёва 33 / Вилла Михаэлис",
      "description": "Элегантное здание с угловой башней, визитная карточка рельефной пластики модерна.",
      "lat": 54.7187529,
      "lng": 20.4666175,
      "audioFile": "15. ул. Огарёва,33 вилла Михаэлис.opus"
    },
    {
      "id": "stop_16",
      "title": "ул. Кутузова 20 / Вилла Папендик",
      "description": "Великолепно сохранившийся особняк с выразительным парадным входом и крышей.",
      "lat": 54.7185096,
      "lng": 20.4663784,
      "audioFile": "16. ул. Кутузова 20 вилла папендик.opus"
    },
    {
      "id": "stop_17",
      "title": "ул. Нахимова 2 / Вилла Арон",
      "description": "Асимметричное здание со сложной кровлей и уникальным кирпичным декором.",
      "lat": 54.7180735,
      "lng": 20.4649422,
      "audioFile": "17. ул. Нахимова 2 вилла Арон.opus"
    },
    {
      "id": "stop_18",
      "title": "Каштановая аллея 26 / Вилла Лео (Часть 1)",
      "description": "Первая часть рассказа об одной из старейших и наиболее известных вилл района.",
      "lat": 54.7171511,
      "lng": 20.4657306,
      "audioFile": "18. ул. каштановая аллея дом 26 вилла лео.opus"
    },
    {
      "id": "stop_19",
      "title": "Каштановая аллея 16 / Вилла Лео (Часть 2)",
      "description": "Продолжение истории архитектурного ансамбля и особенностей быта жителей Каштановой аллеи.",
      "lat": 54.7156775,
      "lng": 20.4662301,
      "audioFile": "19. ул.Каштановая аллея,16 Вилла Лео.opus"
    },
    {
      "id": "stop_20",
      "title": "Литовский сквер",
      "description": "Уютный тематический сквер на пересечении туристических маршрутов.",
      "lat": 54.7152131,
      "lng": 20.4653288,
      "audioFile": "20. Литовский сквер.opus"
    },
    {
      "id": "stop_21",
      "title": "Кирха Св. Адальберта (пр. Победы 41)",
      "description": "Католическая капелла св. Адальберта, возведённая в 1904 году архитектором Хайтманном.",
      "lat": 54.7147356,
      "lng": 20.4652643,
      "audioFile": "21. проспект Победы, 41 Кирха Св. Адальберта.opus"
    },
    {
      "id": "stop_22",
      "title": "пр. Победы 24 / Вилла Эдуарда Шмидта",
      "description": "Прекрасный пример усадебной застройки, окружённой вековыми деревьями сада.",
      "lat": 54.7160115,
      "lng": 20.4668425,
      "audioFile": "22. проспект Победы, 24 Вилла Эдуарда Шмидта.opus"
    },
    {
      "id": "stop_23",
      "title": "ул. Бородинская 17 / Вилла Хонкамп",
      "description": "Здание с чёткими неоклассическими пропорциями и строгим парадным фасадом.",
      "lat": 54.7166219,
      "lng": 20.4676647,
      "audioFile": "23. ул. Бородинская, 17. Вилла Хонкамп.opus"
    },
    {
      "id": "stop_24",
      "title": "ул. Бородинская 13 / Вилла Штински",
      "description": "Изящная вилла, в архитектуре которой гармонично переплелись барокко и модерн.",
      "lat": 54.7160887,
      "lng": 20.4689967,
      "audioFile": "24. ул Бородинская, 13 Вилла Штински.opus"
    },
    {
      "id": "stop_25",
      "title": "улица Огарёва 22 / Вилла Иоахим",
      "description": "Уединённый старинный особняк, скрытый в глубине тенистой улицы Огарёва.",
      "lat": 54.7181661,
      "lng": 20.4692144,
      "audioFile": "25. улица Огарёва, 22 Вилла Иоахим.opus"
    },
    {
      "id": "stop_26",
      "title": "проспект Победы 3",
      "description": "Финальная точка экскурсии, подводящая итоги прогулки по району вилл Амалиенау.",
      "lat": 54.7190634,
      "lng": 20.4744856,
      "audioFile": "26. проспект победы 3.opus"
    }
  ]
}